City_ID,City,Lat,Lng,Max Temp,Humidity,Cloudiness,Wind Speed,Country,Date
0,stanley,54.868,-1.6985,14.6,97,100,1.54,GB,1725243704
1,bethel,41.3712,-73.414,21.75,90,0,0.89,US,1725243578
2,ushuaia,-54.8,-68.3,5.81,70,20,7.72,AR,1725243629
3,puente nacional,5.8774,-73.6781,15.82,95,53,1.69,CO,1725243704
4,ribeira grande,38.5167,-28.7,22.65,77,56,3.58,PT,1725243704
5,puerto natales,-51.7236,-72.4875,2.58,97,73,2.23,CL,1725243704
6,saipan,15.1355,145.701,31.39,74,20,4.12,MP,1725243704
7,waitangi,-43.9535,-176.5597,13.23,92,49,2.24,NZ,1725243704
8,yellowknife,62.456,-114.3525,19.12,77,75,3.09,CA,1725243704
9,kill devil hills,36.0307,-75.676,23.88,96,100,0.0,US,1725243705
10,olonkinbyen,70.9221,-8.7187,6.76,93,31,12.1,SJ,1725243705
11,port-aux-francais,-49.35,70.2167,-0.01,62,100,16.33,TF,1725243705
12,haiku-pauwela,20.9219,-156.3051,26.6,77,46,2.68,US,1725243705
13,katabu,-4.9333,122.5167,28.84,61,100,2.7,ID,1725243705
14,rikaze,29.25,88.8833,15.1,47,83,1.43,CN,1725243705
15,kiunga,-6.1219,141.2906,26.95,91,95,1.6,PG,1725243705
16,uturoa,-16.7333,-151.4333,25.11,76,67,11.66,PF,1725243705
17,adamstown,-25.066,-130.1015,18.18,61,0,8.32,PN,1725243705
18,macau,22.2006,113.5461,33.17,79,20,2.06,MO,1725243573
19,dawei,14.0833,98.2,25.71,89,100,0.59,MM,1725243706
20,jianshui,23.6363,102.8264,23.6,85,75,1.27,CN,1725243706
21,la passe,45.5549,-0.8967,17.78,89,0,0.85,FR,1725243706
22,hilton head island,32.2163,-80.7526,28.32,79,3,0.0,US,1725243574
23,happy valley-goose bay,53.3168,-60.3315,19.17,77,40,3.6,CA,1725243706
24,walvis bay,-22.9575,14.5053,16.84,58,4,5.47,NA,1725243706
25,invercargill,-46.4,168.35,18.9,50,100,8.05,NZ,1725243706
26,papatowai,-46.5619,169.4708,17.5,50,100,3.19,NZ,1725243706
27,clinton,42.587,-82.9199,20.6,72,0,0.89,US,1725243481
28,grytviken,-54.2811,-36.5092,1.0,91,45,4.3,GS,1725243706
29,hermanus,-34.4187,19.2345,11.67,82,89,5.92,ZA,1725243706
30,isafjordur,66.0755,-23.124,7.83,78,74,5.14,IS,1725243707
31,whitehorse,60.7161,-135.0538,15.43,45,75,3.09,CA,1725243707
32,bredasdorp,-34.5322,20.0403,9.86,92,72,3.58,ZA,1725243707
33,mana,5.6592,-53.7767,25.85,90,60,3.78,GF,1725243707
34,thompson,55.7435,-97.8558,16.09,67,75,1.54,CA,1725243707
35,albany,42.6001,-73.9662,21.23,68,21,4.02,US,1725243553
36,keflavik,64.0049,-22.5624,10.24,93,100,10.29,IS,1725243707
37,dudinka,69.4058,86.1778,7.03,68,14,2.74,RU,1725243707
38,boumagueur,35.5052,5.5525,27.53,41,76,1.73,DZ,1725243707
39,holualoa,19.6228,-155.9522,26.25,80,21,2.1,US,1725243707
40,kavaratti,10.5669,72.642,26.96,85,98,6.72,IN,1725243707
41,acarau,-2.8856,-40.12,24.65,84,69,7.03,BR,1725243707
42,blackmans bay,-43.0167,147.3167,9.29,78,98,1.34,AU,1725243708
43,porto velho,-8.7619,-63.9039,27.03,74,0,0.51,BR,1725243437
44,west island,-12.1568,96.8225,27.99,74,40,5.66,CC,1725243708
45,bilibino,68.0546,166.4372,14.64,62,100,1.86,RU,1725243708
46,edinburgh of the seven seas,-37.0676,-12.3116,9.15,62,100,11.44,SH,1725243708
47,kihangara,-2.5833,33.35,21.02,52,82,4.86,TZ,1725243708
48,margaret river,-33.95,115.0667,15.75,72,11,4.23,AU,1725243708
49,iqaluit,63.7506,-68.5145,2.85,93,100,3.09,CA,1725243708
50,touros,-5.1989,-35.4608,22.31,89,62,4.75,BR,1725243493
51,coquimbo,-29.9533,-71.3436,11.85,100,100,2.06,CL,1725243408
52,petropavlovsk-kamchatsky,53.0452,158.6483,20.33,49,40,6.0,RU,1725243708
53,lazaro cardenas,17.9583,-102.2,28.04,79,49,2.23,MX,1725243708
54,nar'yan-mar,67.6713,53.087,8.51,87,100,5.29,RU,1725243708
55,puerto ayora,-0.7393,-90.3518,20.86,91,100,1.34,EC,1725243708
56,eyl,7.9803,49.8164,25.25,67,20,9.32,SO,1725243709
57,zheleznodorozhnyy,55.7503,38.0042,12.75,54,0,1.96,RU,1725243709
58,codrington,-38.2667,141.9667,11.0,58,22,15.15,AU,1725243709
59,yuzhno-kurilsk,44.0306,145.8556,22.09,73,4,2.61,RU,1725243709
60,poronaysk,49.2167,143.1167,21.39,54,54,4.75,RU,1725243709
61,klyuchi,52.2667,79.1667,9.75,78,100,5.14,RU,1725243709
62,mossel bay,-34.1831,22.146,9.96,74,10,6.53,ZA,1725243561
63,sur,22.5667,59.5289,27.88,84,74,7.68,OM,1725243709
64,la'ie,21.6477,-157.9253,29.66,78,6,3.13,US,1725243709
65,ananyiv,47.7201,29.9664,19.99,38,11,3.72,UA,1725243709
66,cascais,38.6979,-9.4215,21.39,83,1,2.24,PT,1725243709
67,tazovsky,67.4667,78.7,6.86,97,100,2.66,RU,1725243710
68,yardimli,38.9206,48.2372,17.54,53,0,0.76,AZ,1725243710
69,laojunmiao,39.8333,97.7333,19.88,50,67,2.11,CN,1725243710
70,kitimat,54.0524,-128.6534,21.62,65,62,2.24,CA,1725243710
71,yasuj,30.6682,51.588,16.75,51,0,0.0,IR,1725243710
72,nazarovo,56.0064,90.3914,8.99,93,100,2.53,RU,1725243710
73,alamosa,37.4695,-105.87,17.99,22,0,5.66,US,1725243710
74,sotuta,20.6,-89.0167,25.3,92,100,2.69,MX,1725243710
75,tralee,52.2704,-9.7026,14.59,99,100,2.47,IE,1725243710
76,tiksi,71.6872,128.8694,6.49,73,11,3.21,RU,1725243710
77,puerto armuelles,8.2833,-82.8667,24.49,94,100,0.45,PA,1725243710
78,pitkyaranta,61.5734,31.4792,10.78,92,17,3.06,RU,1725243710
79,xai-xai,-25.0519,33.6442,15.23,86,0,2.21,MZ,1725243711
80,jamestown,42.097,-79.2353,16.8,77,0,4.12,US,1725243510
81,lebu,-37.6167,-73.65,11.27,97,100,6.94,CL,1725243711
82,puerto deseado,-47.7503,-65.8938,10.1,66,92,5.33,AR,1725243552
83,jayapura,-2.5333,140.7,29.66,68,90,2.1,ID,1725243711
84,labytnangi,66.6572,66.4183,8.39,88,100,5.31,RU,1725243711
85,nemuro,43.3236,145.575,19.15,99,100,3.21,JP,1725243547
86,arroyo,41.6096,-4.7969,18.41,87,0,3.6,ES,1725243711
87,popondetta,-8.7537,148.2534,30.67,59,98,2.03,PG,1725243711
88,manuguru,17.981,80.7547,23.12,98,100,2.29,IN,1725243711
89,necochea,-38.5473,-58.7368,8.33,91,97,5.13,AR,1725243711
90,ilulissat,69.2167,-51.1,2.01,87,100,0.0,GL,1725243711
91,badger,64.8,-147.5333,14.99,60,0,1.54,US,1725243712
92,pampierstad,-27.7832,24.6877,13.49,49,0,2.8,ZA,1725243712
93,karratha,-20.7377,116.8463,31.81,20,0,8.79,AU,1725243712
94,urangan,-25.3,152.9,21.39,79,0,8.03,AU,1725243712
95,kailua-kona,19.6406,-155.9956,28.32,80,5,1.34,US,1725243712
96,punta arenas,-53.15,-70.9167,5.06,70,20,8.23,CL,1725243712
97,nieves,15.3274,120.9485,25.64,92,100,1.33,PH,1725243712
98,port elizabeth,-33.918,25.5701,10.16,93,0,2.06,ZA,1725243712
99,liwale,-9.7667,37.9333,19.95,63,9,4.24,TZ,1725243712
100,cadale,2.7603,46.3222,24.86,79,41,6.95,SO,1725243712
101,leua,48.2156,18.6071,19.7,58,1,2.87,SK,1725243712
102,chernyshevskiy,63.0128,112.4714,13.96,79,26,0.99,RU,1725243712
103,vila franca do campo,37.7167,-25.4333,22.23,64,2,3.73,PT,1725243712
104,jalor,25.35,72.6167,28.63,69,100,2.12,IN,1725243713
105,flying fish cove,-10.4217,105.6791,26.82,78,75,5.66,CX,1725243713
106,remire-montjoly,4.9167,-52.2667,27.02,89,0,0.51,GF,1725243503
107,dryden,49.7833,-92.7503,13.16,71,0,1.03,CA,1725243713
108,hasaki,35.7333,140.8333,27.7,82,84,10.29,JP,1725243713
109,lerik,38.7726,48.4128,16.75,53,0,1.21,AZ,1725243713
110,avarua,-21.2078,-159.775,21.03,94,75,8.75,CK,1725243713
111,guines,50.8671,1.8703,18.49,94,21,3.36,FR,1725243713
112,muisne,0.6,-80.0333,23.45,84,93,3.51,EC,1725243713
113,kenai,60.5544,-151.2583,17.05,55,20,3.09,US,1725243713
114,qusmuryn,52.4503,64.6311,9.34,68,9,2.66,KZ,1725243713
115,qaqortoq,60.7167,-46.0333,3.19,68,4,0.82,GL,1725243713
116,luganville,-15.5333,167.1667,26.84,62,0,7.01,VU,1725243714
117,nur-sultan,51.1801,71.446,6.97,93,75,3.0,KZ,1725243714
118,shar'ya,58.3686,45.5144,12.3,91,20,1.21,RU,1725243714
119,wamba,8.9333,8.6,21.65,93,100,1.47,NG,1725243714
120,khandyga,62.6667,135.6,8.89,94,100,1.5,RU,1725243714
121,malango,-2.9627,119.9001,25.35,70,94,1.73,ID,1725243714
122,montagu,-40.7667,144.9667,9.12,68,84,11.68,AU,1725243714
123,sinabang,2.4803,96.3801,28.37,74,100,1.08,ID,1725243714
124,massawa,15.6097,39.45,31.78,59,40,1.09,ER,1725243714
125,port mathurin,-19.6833,63.4167,21.61,78,6,9.86,MU,1725243714
126,igarka,67.4667,86.5833,6.89,70,100,2.19,RU,1725243714
127,yemva,62.59,50.8594,14.84,98,100,2.66,RU,1725243714
128,georgetown,5.4112,100.3354,28.96,79,20,1.54,MY,1725243506
129,carnarvon,-24.8667,113.6333,22.8,35,0,0.96,AU,1725243715
130,lionel town,17.8101,-77.2406,27.15,85,43,2.72,JM,1725243715
131,kalocsa,46.5264,18.9858,19.58,49,11,2.45,HU,1725243715
132,puerto baquerizo moreno,-0.9,-89.6,19.63,78,64,4.47,EC,1725243715
133,ambon,-3.6954,128.1814,26.08,94,40,2.06,ID,1725243715
134,pandan,14.0453,124.1694,28.75,76,95,7.7,PH,1725243715
135,atafu village,-8.5421,-172.5159,27.92,76,9,8.97,TK,1725243715
136,labrador city,52.9463,-66.9114,10.95,86,100,9.39,CA,1725243610
137,sadovoye,47.7764,44.5089,21.96,28,59,7.71,RU,1725243715
138,salinopolis,-0.6136,-47.3561,26.3,81,83,4.83,BR,1725243497
139,strenci,57.6257,25.6854,8.42,86,7,1.84,LV,1725243716
140,anadyr,64.75,177.4833,12.28,71,0,8.0,RU,1725243716
141,utrik,11.2278,169.8474,28.5,75,4,3.98,MH,1725243716
142,nova sintra,14.8667,-24.7167,26.36,88,100,7.16,CV,1725243716
143,sal rei,16.1833,-22.9167,25.46,80,100,5.59,CV,1725243716
144,san patricio,28.017,-97.5169,29.97,63,99,2.92,US,1725243716
145,watford city,47.8022,-103.2832,20.25,42,0,4.12,US,1725243716
146,novyy urengoy,66.0833,76.6333,7.76,92,100,4.82,RU,1725243716
147,kibakwe,-6.7167,36.3667,15.04,82,7,1.56,TZ,1725243716
148,tura,25.5198,90.2201,27.37,77,61,0.33,IN,1725243716
149,tequila,20.8833,-103.8333,20.99,87,96,1.24,MX,1725243716
150,alice springs,-23.7,133.8833,26.75,19,5,8.23,AU,1725243716
151,cockburn town,21.4612,-71.1419,29.06,79,0,8.75,TC,1725243561
152,magdagachi,53.45,125.8,18.57,42,5,3.98,RU,1725243717
153,kolwezi,-10.7148,25.4667,14.53,67,2,4.77,CD,1725243717
154,talcahuano,-36.7167,-73.1167,9.82,100,100,7.2,CL,1725243717
155,drouin,-38.1333,145.85,11.6,90,100,6.39,AU,1725243717
156,east london,-33.0153,27.9116,15.33,77,11,2.25,ZA,1725243717
157,longyearbyen,78.2186,15.6401,5.91,100,75,0.0,SJ,1725243717
158,murgeni,46.2044,28.0197,18.67,56,8,3.5,RO,1725243717
159,constantia,44.1833,28.65,18.38,77,1,3.88,RO,1725243717
160,vorgashor,67.5833,63.95,7.5,97,100,7.27,RU,1725243717
161,kourou,5.1552,-52.6478,26.04,88,58,2.53,GF,1725243717
162,nagqu,31.5,92.0,10.27,66,90,2.49,CN,1725243717
163,nieuw amsterdam,5.8833,-55.0833,26.22,87,61,3.08,SR,1725243717
164,afaahiti,-17.75,-149.2833,22.6,75,96,12.25,PF,1725243717
165,soto la marina,23.7667,-98.2167,27.45,80,97,2.43,MX,1725243719
166,vicuna,-30.0319,-70.7081,24.07,33,7,0.45,CL,1725243719
167,birjand,32.8663,59.2211,19.26,26,0,5.14,IR,1725243719
168,hirara,24.8,125.2833,31.15,58,20,1.54,JP,1725243719
169,sisimiut,66.9395,-53.6735,2.51,76,69,1.16,GL,1725243719
170,sligo,54.2697,-8.4694,14.39,97,100,1.46,IE,1725243719
171,ola,59.5833,151.2833,10.88,95,100,6.1,RU,1725243719
172,merritt island,28.5392,-80.672,27.22,89,0,2.57,US,1725243719
173,enkoping,59.6361,17.0777,13.23,91,100,2.64,SE,1725243719
174,castillos,-34.1667,-53.8333,12.25,93,100,4.81,UY,1725243720
175,pisco,-13.7,-76.2167,16.03,82,0,5.66,PE,1725243720
176,cooma,-36.2333,149.1333,7.82,48,18,10.71,AU,1725243720
177,ust-nera,64.5667,143.2,6.47,95,100,4.34,RU,1725243720
178,barra de santo antonio,-9.4047,-35.5072,23.78,73,26,6.35,BR,1725243720
179,porto murtinho,-21.6989,-57.8825,19.2,44,2,2.3,BR,1725243720
180,maydanshakhr,34.3956,68.8662,19.9,39,83,0.7,AF,1725243720
181,lihue,21.9789,-159.3672,28.77,72,20,5.14,US,1725243720
182,vila velha,-20.3297,-40.2925,22.19,84,0,5.66,BR,1725243720
183,susuman,62.7833,148.1667,9.57,85,100,4.42,RU,1725243721
184,katsuura,35.1333,140.3,27.72,84,75,8.97,JP,1725243721
185,arrifes,37.7667,-25.7,21.14,64,20,4.12,PT,1725243721
186,bereket,39.2446,55.5154,23.78,23,0,8.23,TM,1725243721
187,abu jibeha,11.4562,31.2285,19.86,98,100,1.22,SD,1725243611
188,chul'man,56.8479,124.9104,6.83,87,100,3.49,RU,1725243721
189,pangody,65.85,74.4859,6.68,89,100,4.98,RU,1725243721
190,hawaiian paradise park,19.5933,-154.9731,27.73,80,75,4.63,US,1725243721
191,santa elena de uairen,4.6167,-61.1333,19.21,86,71,0.49,VE,1725243721
192,bishkul,54.7803,69.1033,7.93,78,60,5.07,KZ,1725243721
193,kaka,37.3482,59.6143,21.63,26,0,1.5,TM,1725243721
194,lorengau,-2.0226,147.2712,27.45,83,100,3.93,PG,1725243722
195,college,64.8569,-147.8028,15.04,55,75,1.54,US,1725243723
196,port douglas,-16.4833,145.4667,25.06,62,0,4.19,AU,1725243723
197,egilsstadir,65.2653,-14.3948,12.95,76,75,7.72,IS,1725243723
198,madras,13.0878,80.2785,28.92,79,75,2.57,IN,1725243671
199,bereznik,62.8551,42.7072,14.7,98,30,2.04,RU,1725243723
200,cidreira,-30.1811,-50.2056,13.74,73,32,8.25,BR,1725243723
201,kununurra,-15.7667,128.7333,32.99,43,38,3.09,AU,1725243723
202,vilyuchinsk,52.9306,158.4028,21.15,63,100,2.89,RU,1725243723
203,aykhal,66.0,111.5,13.73,66,100,3.9,RU,1725243723
204,twon-brass,4.3151,6.2418,25.49,80,96,3.61,NG,1725243723
205,irtyshsk,53.3333,75.4572,7.02,78,100,4.38,KZ,1725243723
206,moree,-29.4667,149.85,24.72,20,0,7.31,AU,1725243724
207,fale old settlement,-9.3852,-171.2468,28.08,72,20,8.98,TK,1725243724
208,metlili chaamba,32.2667,3.6333,30.33,32,95,2.07,DZ,1725243724
209,phek,25.6667,94.5,22.42,91,96,0.76,IN,1725243724
210,aasiaat,68.7098,-52.8699,0.26,80,60,3.17,GL,1725243724
211,lepsy,46.235,78.9456,13.88,58,100,6.33,KZ,1725243724
212,praia da vitoria,38.7333,-27.0667,22.14,78,75,3.86,PT,1725243724
213,chonchi,-42.6128,-73.8092,8.4,94,78,2.84,CL,1725243724
214,saldanha,-33.0117,17.9442,14.03,61,12,3.71,ZA,1725243724
215,colonia,50.9333,6.95,22.2,79,6,1.32,DE,1725243724
216,hammerfest,70.6634,23.6821,12.25,100,100,2.06,NO,1725243675
217,st. john's,47.5649,-52.7093,18.42,92,75,7.2,CA,1725243607
218,pacific grove,36.6177,-121.9166,19.64,80,0,4.63,US,1725243725
219,gadzhiyevo,69.2551,33.3362,12.38,86,100,2.75,RU,1725243725
220,isla mujeres,21.2311,-86.731,25.09,78,38,2.58,MX,1725243725
221,amga,60.8953,131.9608,7.25,85,100,4.96,RU,1725243725
222,colares,38.7992,-9.4469,21.29,85,1,5.54,PT,1725243725
223,muroto-misakicho,33.2833,134.15,28.2,75,35,3.45,JP,1725243725
224,udachny,66.4167,112.4,14.95,69,31,3.56,RU,1725243725
225,manta,-0.95,-80.7333,21.88,83,100,5.14,EC,1725243606
226,tobruk,32.0836,23.9764,26.0,74,0,2.07,LY,1725243725
227,alindao,5.0267,21.2088,20.82,97,99,0.63,CF,1725243726
228,wailua homesteads,22.0669,-159.378,28.44,74,20,5.14,US,1725243726
229,bouarfa,32.53,-1.95,23.81,44,92,2.26,MA,1725243726
230,morehead city,34.7229,-76.726,28.02,84,0,4.63,US,1725243726
231,salym,60.0625,71.4789,9.54,93,100,4.49,RU,1725243726
232,villa gesell,-37.2639,-56.973,9.11,88,55,3.39,AR,1725243726
233,hithadhoo,-0.6,73.0833,28.35,73,46,3.48,MV,1725243726
234,sussex,41.1834,-74.6663,21.67,89,40,0.45,US,1725243726
235,al muwayh,22.4333,41.7583,29.95,25,74,4.22,SA,1725243726
236,bamboo flat,11.7,92.7167,27.24,83,100,4.74,IN,1725243726
237,rawson,-43.3002,-65.1023,18.16,36,0,9.77,AR,1725243726
238,dosso,13.049,3.1937,24.17,88,94,4.0,NE,1725243727
239,hotan,37.0997,79.9269,24.6,45,94,0.57,CN,1725243727
240,ponta delgada,37.7333,-25.6667,22.4,68,40,4.12,PT,1725243499
241,sao tome,0.3365,6.7273,24.87,86,100,3.85,ST,1725243727
242,raichur,16.2,77.3667,21.45,85,100,4.83,IN,1725243727
243,brasileia,-11.0161,-68.7481,26.53,35,12,1.6,BR,1725243727
244,nadi,-17.8,177.4167,31.0,40,20,4.63,FJ,1725243565
245,plastun,44.7561,136.2939,23.47,40,4,4.53,RU,1725243727
246,harper,4.375,-7.7169,23.64,89,100,4.61,LR,1725243727
247,kilindoni,-7.9139,39.6668,24.54,79,23,9.97,TZ,1725243632
248,chulakkurgan,43.765,69.1814,12.4,42,0,4.89,KZ,1725243727
249,tarashcha,49.5583,30.4926,19.14,40,100,3.51,UA,1725243727
250,dauphin,51.1494,-100.0502,15.08,72,0,2.57,CA,1725243727
251,akrehamn,59.2667,5.1833,11.14,82,12,3.09,NO,1725243728
252,ugoofaaru,5.6667,73.0,28.01,79,100,4.89,MV,1725243728
253,loppi,60.7167,24.45,9.66,97,73,2.32,FI,1725243728
254,mount gambier,-37.8333,140.7667,11.32,51,10,9.38,AU,1725243728
255,westport,41.1415,-73.3579,23.64,91,2,3.18,US,1725243624
256,tol'yatti,53.5303,49.3461,13.7,49,0,1.29,RU,1725243728
257,azangaro,-14.9167,-70.2167,3.71,66,26,1.13,PE,1725243728
258,contamana,-7.3333,-75.0167,27.35,49,78,0.34,PE,1725243728
259,antonio enes,-16.2325,39.9086,22.2,74,26,5.89,MZ,1725243728
260,kapa'a,22.0752,-159.319,29.18,72,20,5.14,US,1725243728
261,fort bragg,35.139,-79.006,26.57,86,100,5.36,US,1725243728
262,najran,17.4924,44.1277,25.84,30,30,1.36,SA,1725243728
263,dampit,-8.2116,112.7493,30.02,44,6,1.93,ID,1725243729
264,puerto leguizamo,-0.1934,-74.7819,23.74,85,70,1.1,CO,1725243729
265,menongue,-14.6585,17.691,14.76,35,13,3.86,AO,1725243729
266,mejit,10.2753,170.8646,28.51,75,0,3.34,MH,1725243729
267,brookings,44.3114,-96.7984,17.0,73,0,3.09,US,1725243544
268,aldinga beach,-35.2793,138.4604,14.81,51,25,8.34,AU,1725243729
269,kayyerkan,69.3786,87.7439,7.5,75,88,1.45,RU,1725243729
270,oelwein,42.6733,-91.9135,16.13,80,24,3.47,US,1725243455
271,severo-yeniseyskiy,60.3725,93.0408,4.61,82,95,1.37,RU,1725243729
272,mahavelona,-17.6848,49.5087,18.6,90,30,3.1,MG,1725243729
273,zvishavane,-20.3267,30.0665,9.43,44,0,0.7,ZW,1725243729
274,pizarro,4.9533,-77.366,25.2,92,100,1.77,CO,1725243730
275,mercedes,-34.6515,-59.4307,9.88,92,15,3.21,AR,1725243680
276,pangobilian,8.8011,117.8594,27.11,88,100,4.69,PH,1725243730
277,talnakh,69.4865,88.3972,8.01,71,58,1.53,RU,1725243730
278,taroa,8.7058,171.2275,28.94,71,14,4.48,MH,1725243730
279,satara,17.6833,73.9833,20.6,96,100,0.9,IN,1725243730
280,beau vallon,-20.4189,57.6953,21.13,73,40,4.63,MU,1725243730
281,berezovyy,51.6667,135.7,18.55,34,4,5.8,RU,1725243730
282,richards bay,-28.783,32.0377,19.41,83,66,5.94,ZA,1725243730
283,goulburn,-34.75,149.7167,11.55,42,53,4.02,AU,1725243730
284,broome,42.2506,-75.833,19.2,86,100,3.6,US,1725243730
285,imzouren,35.1463,-3.8497,24.6,20,20,0.0,MA,1725243730
286,spitak,40.8322,44.2673,10.53,70,0,1.74,AM,1725243730
287,new amsterdam,6.25,-57.5167,24.5,95,100,1.77,GY,1725243730
288,ivdel',60.6911,60.4206,15.37,78,89,4.41,RU,1725243674
289,wilmington island,32.0036,-80.9737,27.21,85,0,2.06,US,1725243731
290,fort st. john,56.2499,-120.8529,23.94,35,40,4.63,CA,1725243672
291,thai binh,20.45,106.3333,30.46,72,80,2.07,VN,1725243495
292,argo,37.6333,22.7333,23.2,61,12,1.78,GR,1725243731
293,moussoro,13.6408,16.4901,24.12,91,100,4.34,TD,1725243731
294,port alfred,-33.5906,26.891,15.97,73,90,1.01,ZA,1725243731
295,correntina,-13.3433,-44.6367,20.76,34,0,1.73,BR,1725243731
296,tual,-5.6667,132.75,26.26,82,90,8.98,ID,1725243731
297,cabo san lucas,22.8909,-109.9124,31.17,58,20,2.57,MX,1725243544
298,naryn,41.4287,75.9911,11.72,31,1,0.59,KG,1725243731
299,mount pearl,47.5166,-52.7813,17.96,93,75,7.2,CA,1725243731
300,sao gabriel da cachoeira,-0.1303,-67.0892,22.76,91,71,0.62,BR,1725243732
301,bandon,51.7469,-8.7425,14.77,97,100,2.35,IE,1725243732
302,bardai,11.65,7.2333,19.87,94,46,3.18,NG,1725243732
303,polyarnyy,69.1989,33.4478,12.03,87,100,2.35,RU,1725243732
304,tomatlan,19.9333,-105.25,25.82,91,95,0.12,MX,1725243732
305,akjoujt,19.6969,-14.4164,34.03,19,99,5.95,MR,1725243732
306,saint-flour,45.0833,3.0,11.06,95,2,0.59,FR,1725243732
307,kudahuvadhoo,2.6708,72.8944,28.52,74,92,3.33,MV,1725243732
308,dolores,-36.3132,-57.6792,8.23,91,21,2.22,AR,1725243512
309,apatity,67.5641,33.4031,9.44,93,93,1.35,RU,1725243732
310,port lincoln,-34.7333,135.8667,13.92,49,6,7.97,AU,1725243732
311,mount isa,-20.7333,139.5,36.87,13,0,3.6,AU,1725243732
312,souillac,-20.5167,57.5167,21.21,73,40,4.63,MU,1725243733
313,curup,-3.4667,102.5333,28.68,76,94,0.48,ID,1725243733
314,la ronge,55.1001,-105.2842,25.12,41,40,3.09,CA,1725243733
315,kodiak,57.79,-152.4072,13.73,77,100,4.12,US,1725243612
316,san antonio de pale,-1.4014,5.6325,23.74,88,100,6.0,GQ,1725243733
317,inarajan village,13.2736,144.7484,31.89,83,100,2.45,GU,1725243733
318,sangod,24.9167,76.2833,27.24,83,100,1.44,IN,1725243733
319,kizhinga,51.8462,109.9097,21.56,38,56,1.32,RU,1725243733
320,canutama,-6.5339,-64.3831,27.04,32,3,1.4,BR,1725243733
321,mogocha,53.7333,119.7667,19.93,38,8,3.21,RU,1725243733
322,bom jesus,-9.0744,-44.3586,20.78,46,5,0.98,BR,1725243733
323,san pedro,14.35,121.0167,23.57,97,100,7.72,PH,1725243733
324,cartagena del chaira,1.3349,-74.8429,23.26,82,100,0.92,CO,1725243733
325,teshi old town,5.5836,-0.1072,23.2,89,8,3.89,GH,1725243733
326,nguigmi,14.2495,13.1092,29.22,60,100,5.86,NE,1725243734
327,veinticinco de mayo,-35.4323,-60.1727,7.77,96,10,1.79,AR,1725243734
328,antsohihy,-14.8796,47.9875,17.8,71,1,2.31,MG,1725243734
329,at taj,24.2049,23.2857,31.84,32,100,5.02,LY,1725243734
330,zykovo,55.9519,93.1461,10.88,88,100,0.92,RU,1725243734
331,newman,37.3138,-121.0208,28.91,41,4,3.13,US,1725243734
332,grand falls-windsor,48.9332,-55.6649,15.73,91,100,4.5,CA,1725243734
333,kayangel,8.0823,134.7173,26.68,85,100,4.92,PW,1725243734
334,fasa,28.9383,53.6482,19.58,22,0,3.09,IR,1725243734
335,letterkenny,54.95,-7.7333,14.05,99,100,0.34,IE,1725243734
336,ust'-kut,56.7938,105.7672,14.84,85,97,1.56,RU,1725243734
337,kone,-21.0595,164.8658,30.86,34,2,2.82,NC,1725243734
338,kampong speu,11.5,104.3333,27.37,79,100,0.76,KH,1725243735
339,tatishchevo,51.6703,45.5953,12.65,56,11,3.87,RU,1725243735
340,kapuskasing,49.4169,-82.4331,8.05,87,100,2.57,CA,1725243541
341,cartagena,10.3997,-75.5144,28.79,74,40,1.54,CO,1725243688
342,tbilisskaya,45.3633,40.19,21.17,57,100,4.78,RU,1725243708
343,okhotsk,59.3833,143.3,12.67,91,100,2.57,RU,1725243735
344,mirny,62.5353,113.9611,13.77,82,94,0.49,RU,1725243735
345,puerto maldonado,-12.6,-69.1833,24.08,50,4,1.47,PE,1725243735
346,ta`u,-14.2336,-169.5144,26.11,77,13,2.81,AS,1725243736
347,betioky,-23.7167,44.3833,16.35,81,0,4.65,MG,1725243736
348,san pedro pochutla,15.7333,-96.4667,27.62,86,100,1.4,MX,1725243736
349,champasak,14.75,106.0,25.93,88,98,1.18,LA,1725243736
350,howrah,22.5892,88.3103,30.0,84,40,2.57,IN,1725243736
351,al bardiyah,31.7561,25.0865,25.16,75,0,2.61,LY,1725243736
352,mar del plata,-38.0023,-57.5575,10.07,94,91,4.92,AR,1725243057
353,glace bay,46.1969,-59.957,19.53,95,100,5.14,CA,1725243736
354,sadjoavato,-12.6334,49.349,17.99,76,67,1.28,MG,1725243736
355,kyshtovka,56.555,76.6271,7.39,79,100,4.16,RU,1725243736
356,rongelap,11.1635,166.8941,28.66,69,7,4.11,MH,1725243736
357,machali,-34.1833,-70.6667,15.36,68,100,0.54,CL,1725243736
358,hamilton,39.1834,-84.5333,24.87,70,0,6.69,US,1725243532
359,axim,4.8699,-2.2405,22.86,93,74,2.85,GH,1725243736
360,berezovo,63.9381,65.0419,9.69,81,100,4.43,RU,1725243737
361,camapua,-19.5314,-54.0439,24.96,31,99,3.36,BR,1725243737
362,chui,-33.6971,-53.4616,12.98,91,100,4.07,UY,1725243697
363,paita,-5.0892,-81.1144,17.15,84,3,6.37,PE,1725243737
364,yandev,7.3667,9.05,23.38,88,100,2.93,NG,1725243737
365,selfoss,63.9331,-20.9971,10.02,91,15,8.06,IS,1725243737
366,sirte,31.2089,16.5887,25.43,68,0,3.12,LY,1725243737
367,saint-philippe,-21.3585,55.7679,20.28,81,43,5.39,RE,1725243737
368,opuwo,-18.0607,13.84,17.42,21,11,3.23,NA,1725243605
369,alofi,-19.0595,-169.9187,25.94,73,75,6.17,NU,1725243737
370,buka,40.8108,69.1986,14.81,37,4,4.12,UZ,1725243737
371,kingston,17.997,-76.7936,28.53,84,20,4.63,JM,1725243693
372,matthew town,20.95,-73.6667,28.75,77,12,7.24,BS,1725243737
373,takaungu,-3.6837,39.8566,23.35,86,38,5.09,KE,1725243738
374,vernon,50.2581,-119.2691,29.86,42,14,0.51,CA,1725243738
375,crane,31.3974,-102.3501,26.53,54,100,8.3,US,1725243738
376,port isabel,26.0734,-97.2086,29.45,83,20,2.57,US,1725243739
377,sao vicente,-23.9631,-46.3919,25.55,33,56,3.38,BR,1725243739
378,baardheere,2.3446,42.2764,23.53,78,33,6.22,SO,1725243739
379,urgup,38.6304,34.9116,17.84,76,1,1.74,TR,1725243739
380,birao,10.2849,22.7882,19.11,94,94,0.72,CF,1725243739
381,inhambane,-23.865,35.3833,18.69,73,47,3.2,MZ,1725243739
382,timmins,48.4669,-81.3331,7.9,81,40,3.6,CA,1725243739
383,melo,-32.3667,-54.1833,11.66,90,100,5.11,UY,1725243740
384,kerikeri,-35.2268,173.9474,19.95,87,64,0.89,NZ,1725243740
385,thinadhoo,0.5333,72.9333,28.39,73,99,3.45,MV,1725243740
386,taroudant,30.4703,-8.877,21.7,68,0,2.14,MA,1725243740
387,valparaiso,-33.0393,-71.6273,10.8,100,100,1.54,CL,1725243610
388,port-vila,-17.7338,168.3219,26.78,65,75,7.72,VU,1725243740
389,yur'yevets,57.3201,43.1041,15.05,80,3,2.57,RU,1725243740
390,mizdah,31.4451,12.9801,23.0,73,0,2.46,LY,1725243740
391,becancour,46.3334,-72.4324,16.0,85,0,2.57,CA,1725243740
392,naracoorte,-36.9579,140.7383,12.02,51,11,11.24,AU,1725243740
393,papao,-17.75,-149.55,25.37,76,66,13.09,PF,1725243740
394,tsiombe,-25.3,45.4833,18.34,78,72,6.07,MG,1725243740
395,strathalbyn,-35.2667,138.9,13.81,75,18,8.52,AU,1725243740
396,quellon,-43.1167,-73.6167,8.28,93,99,2.39,CL,1725243741
397,gargzdai,55.7128,21.4033,11.67,80,100,1.58,LT,1725243741
398,cabra,37.4725,-4.4421,23.96,54,99,0.48,ES,1725243741
399,angaur state,6.906,134.13,26.26,82,100,4.55,PW,1725243741
400,inirida,3.8653,-67.9239,23.49,90,67,0.48,CO,1725243741
401,motueka,-41.1333,173.0167,17.83,64,0,2.58,NZ,1725243741
402,agat village,13.3886,144.6585,31.87,82,20,4.63,GU,1725243741
403,el charco,2.4769,-78.1105,24.54,89,100,1.72,CO,1725243741
404,estella-lizarra,42.6718,-2.0323,17.28,87,43,1.92,ES,1725243741
405,kyren,51.6828,102.1408,17.56,62,9,1.11,RU,1725243741
406,novodvinsk,64.4165,40.8122,13.86,95,63,2.36,RU,1725243741
407,chibougamau,49.9168,-74.3659,7.79,87,100,1.03,CA,1725243741
408,cruz alta,-28.6386,-53.6064,7.02,94,0,2.3,BR,1725243741
409,jose pedro varela,-33.45,-54.5333,11.41,89,93,5.19,UY,1725243741
410,viqueque,-8.8673,126.3658,29.45,48,26,4.12,TL,1725243742
411,northam,51.0333,-4.2167,17.56,95,100,1.58,GB,1725243742
412,faya-largeau,17.9257,19.1043,25.25,84,99,3.93,TD,1725243742
413,kittila,67.6647,24.8936,9.23,93,0,0.51,FI,1725243742
414,errachidia,31.9275,-4.4285,27.03,32,0,2.06,MA,1725243742
415,lubuklinggau,-3.3,102.8667,30.09,57,91,0.96,ID,1725243742
416,alexandria,31.2156,29.9553,26.53,70,0,0.15,EG,1725243579
417,arraial do cabo,-22.9661,-42.0278,21.63,84,8,11.96,BR,1725243742
418,carballo,43.213,-8.691,17.65,96,100,2.93,ES,1725243742
419,turpan,42.9333,89.1667,31.89,19,31,0.55,CN,1725243742
420,weno,7.4515,151.8468,29.97,74,100,3.6,FM,1725243742
421,hadibu,12.65,54.0333,25.04,83,69,8.82,YE,1725243742
422,tchintabaraden,15.8969,5.7985,27.35,66,100,4.91,NE,1725243743
423,salinas,36.6777,-121.6555,20.03,73,0,4.63,US,1725243743
424,arno,60.1167,18.6333,12.14,95,100,3.83,SE,1725243743
425,norcasia,5.5778,-74.8852,21.36,90,100,1.86,CO,1725243743
426,sragen,-7.4264,111.0222,29.67,55,5,0.97,ID,1725243521
427,kolonia town,6.964,158.206,27.06,100,100,0.0,FM,1725243743
428,khovd,48.0056,91.6419,17.77,35,0,3.08,MN,1725243622
429,abbadia san salvatore,42.8821,11.6695,21.29,53,93,0.49,IT,1725243743
430,sitka,57.0531,-135.33,13.94,82,75,1.54,US,1725243743
431,berdigestyakh,62.0989,126.6992,11.4,54,100,5.21,RU,1725243743
432,sandnessjoen,66.0217,12.6316,13.96,74,10,3.82,NO,1725243664
433,belyy yar,53.6039,91.3903,12.94,94,40,2.0,RU,1725243743
434,ryotsu-minato,38.0833,138.4333,23.77,93,100,1.29,JP,1725243743
435,vadso,70.0744,29.7487,13.09,82,100,4.12,NO,1725243743
436,kerouane,9.2667,-9.0167,21.36,96,100,2.86,GN,1725243744
437,bosaso,11.2842,49.1816,29.74,68,4,2.07,SO,1725243744
438,ursulo galvan,22.7333,-98.3,29.0,83,99,3.09,MX,1725243744
439,rubiataba,-15.1644,-49.8033,24.48,21,48,1.98,BR,1725243744
440,prachuap khiri khan,12.2167,99.75,25.7,82,100,0.1,TH,1725243744
441,malmesbury,-33.4608,18.7271,11.38,66,91,2.41,ZA,1725243744
442,al hoceima,35.2433,-3.9309,24.57,20,20,0.0,MA,1725243744
443,mili,6.0815,171.735,29.37,73,36,5.62,MH,1725243744
444,kapchorwa,1.3965,34.4509,14.01,96,100,1.1,UG,1725243744
445,tolanaro,-25.0319,46.9987,18.75,87,100,5.37,MG,1725243744
446,ancud,-41.8697,-73.8203,9.48,85,100,7.28,CL,1725243744
447,iskateley,67.6803,53.1512,8.52,87,100,5.21,RU,1725243744
448,carapegua,-25.8,-57.2333,12.2,70,33,1.81,PY,1725243745
449,okha,53.5739,142.9478,14.71,61,76,6.16,RU,1725243577
450,amahai,-3.3333,128.9167,26.3,81,82,1.89,ID,1725243745
451,enewetak,11.3474,162.3373,28.88,73,45,6.01,MH,1725243745
452,changleng,28.7,115.8167,35.77,52,8,1.26,CN,1725243745
453,'ayn al 'arab,36.8932,38.3651,20.46,85,0,3.14,SY,1725243745
454,kati,12.7441,-8.0726,24.67,96,99,1.76,ML,1725243745
455,codajas,-3.8367,-62.0569,27.27,35,11,1.25,BR,1725243745
456,calceta,-0.85,-80.1667,21.96,83,83,3.24,EC,1725243577
457,loralai,30.3705,68.598,23.21,73,42,0.96,PK,1725243745
458,sao francisco do sul,-26.2433,-48.6381,18.87,94,75,1.54,BR,1725243554
459,celestun,20.8667,-90.4,28.17,82,98,4.55,MX,1725243746
460,jinchang,38.4953,102.1739,19.96,56,63,1.74,CN,1725243746
461,toamasina,-18.1667,49.3833,19.13,89,16,3.75,MG,1725243746
462,naze,28.3667,129.4833,29.51,57,18,0.47,JP,1725243746
463,griesheim,49.8628,8.5753,22.99,74,0,4.12,DE,1725243645
464,shilovo,54.3204,40.874,13.9,54,0,3.21,RU,1725243746
465,hegang,47.4,130.3667,21.91,41,1,4.81,CN,1725243746
466,al kharijah,25.4514,30.5464,30.97,31,0,3.56,EG,1725243746
467,west bay,19.3667,-81.4167,29.04,79,75,2.06,KY,1725243746
468,bandar lampung,-5.4254,105.258,30.26,57,11,1.76,ID,1725243746
469,santa cruz,-17.8,-63.1667,20.7,43,3,3.6,BO,1725243520
470,margate,51.3813,1.3862,19.27,89,22,4.3,GB,1725243746
471,kurumkan,54.3,110.3,17.8,53,85,1.44,RU,1725243746
472,zyryanovsk,49.7386,84.2719,10.5,79,94,0.16,KZ,1725243747
473,guaimaro,21.05,-77.35,25.34,87,69,3.79,CU,1725243747
474,koraput,18.8167,82.7167,22.33,86,79,3.25,IN,1725243747
475,darwin,-12.4611,130.8418,31.99,45,20,2.06,AU,1725243747
476,bage,-31.3314,-54.1069,11.88,100,100,3.6,BR,1725243748
477,rockland,41.1668,-74.0496,22.76,91,2,1.4,US,1725243748
478,kimbe,-5.5502,150.1429,31.1,69,47,1.07,PG,1725243748
479,cole harbour,44.6724,-63.4751,19.66,95,95,1.34,CA,1725243748
480,yerofey pavlovich,53.9667,121.9667,18.69,45,9,3.54,RU,1725243748
481,tari,-11.1105,14.3559,16.58,90,53,0.27,AO,1725243748
482,nuuk,64.1835,-51.7216,3.34,81,0,3.6,GL,1725243749
483,smara,26.7384,-11.6719,20.41,79,0,5.44,EH,1725243749
484,igrim,63.1906,64.4162,10.47,85,92,2.44,RU,1725243749
485,archangelos,36.2149,28.1149,23.5,80,3,2.38,GR,1725243749
486,pirallahi,40.4723,50.333,18.08,68,0,5.5,AZ,1725243749
487,buala,-8.145,159.5921,28.84,74,89,4.63,SB,1725243749
488,tidjikja,18.5564,-11.4271,32.47,29,87,6.75,MR,1725243749
489,tarawa,1.419,172.984,31.05,79,40,4.63,KI,1725243749
490,niemodlin,50.642,17.6193,17.36,93,74,1.08,PL,1725243749
491,yaren,-0.5472,166.916,28.32,78,100,7.64,NR,1725243749
492,banamba,13.55,-7.45,23.02,97,100,2.1,ML,1725243749
493,cannonvale,-20.2833,148.7,23.66,66,0,3.86,AU,1725243749
494,ilhabela,-23.7781,-45.3581,23.37,45,68,1.66,BR,1725243750
495,rio grande,-32.035,-52.0986,13.24,90,100,7.64,BR,1725243463
496,chadron,42.8294,-102.9999,27.2,41,0,6.17,US,1725243750
497,sept-iles,50.2001,-66.3821,15.29,96,100,2.24,CA,1725243709
498,illapel,-31.6308,-71.1653,13.13,63,8,0.78,CL,1725243371
499,hacienda huancane,-15.8222,-70.8856,2.45,55,50,1.7,PE,1725243750
500,palamos,41.8484,3.1291,19.98,27,1,2.48,ES,1725243750
501,palu,-0.8917,119.8707,30.84,68,62,0.8,ID,1725243750
502,ouro preto,-20.3948,-43.5052,15.5,37,4,1.99,BR,1725243750
503,eirunepe,-6.6603,-69.8736,26.7,32,6,1.11,BR,1725243751
504,shimoda,34.6667,138.95,29.66,71,93,3.86,JP,1725243751
505,tazacorte,28.629,-17.9293,22.54,85,100,6.69,ES,1725243751
506,brisas de zicatela,15.8369,-97.0419,27.76,80,86,1.39,MX,1725243751
507,cabedelo,-6.9811,-34.8339,23.37,82,24,5.75,BR,1725243751
508,santa ana de yacuma,-13.75,-65.4333,27.52,34,0,3.21,BO,1725243751
509,olinda,-8.0089,-34.8553,25.85,69,40,7.72,BR,1725243713
510,peniche,39.3558,-9.3811,20.62,92,2,4.4,PT,1725243625
511,sao jose da coroa grande,-8.8978,-35.1478,23.97,69,26,5.15,BR,1725243751
512,minbu,20.1833,94.8833,28.75,76,50,1.13,MM,1725243751
513,arsen'yev,44.1631,133.2733,20.76,53,24,2.28,RU,1725243751
514,seoni malwa,22.45,77.4667,25.39,92,100,1.95,IN,1725243751
515,morogoro,-6.8167,37.6667,19.56,83,20,1.13,TZ,1725243752
516,santiago de chuco,-8.15,-78.1833,12.49,53,81,2.15,PE,1725243752
517,puyo,-1.4667,-77.9833,17.8,97,70,1.86,EC,1725243752
518,orchard homes,46.8633,-114.0484,27.08,36,0,3.09,US,1725243495
519,huarmey,-10.0681,-78.1522,16.82,86,10,4.41,PE,1725243383
520,dunedin,-45.8742,170.5036,16.41,55,100,4.37,NZ,1725243752
521,al fqih ben calah,32.5009,-6.6906,24.76,57,13,3.82,MA,1725243752
522,nizhnedevitsk,51.5419,38.3657,15.42,45,0,4.48,RU,1725243615
523,baiti,13.745,-14.7482,24.03,97,100,3.23,SN,1725243752
524,saiha,22.4833,92.9667,26.5,82,84,0.28,IN,1725243752
525,manthani,18.65,79.6667,24.73,96,100,2.32,IN,1725243752
526,tateyama,34.9833,139.8667,28.04,83,26,7.5,JP,1725243752
527,tereze,43.9361,42.4434,15.6,69,1,2.03,RU,1725243753
528,yarmouth,41.7057,-70.2286,23.03,96,100,5.66,US,1725243477
529,itaituba,-4.2761,-55.9836,28.15,34,93,1.26,BR,1725243753
530,aegina,37.7467,23.4275,26.29,62,35,5.0,GR,1725243753
531,elliot lake,46.3834,-82.6331,9.21,78,20,2.11,CA,1725243753
532,thunder bay,48.4001,-89.3168,10.99,82,0,2.57,CA,1725243557
533,niamey,13.5137,2.1098,26.15,78,95,4.99,NE,1725243754
534,midvagur,62.0511,-7.1939,11.46,93,100,4.63,FO,1725243754
535,nikolayevsk-on-amure,53.1406,140.73,17.09,46,78,5.74,RU,1725243754
536,new norfolk,-42.7826,147.0587,9.95,81,93,5.49,AU,1725243754
537,saint-pierre,-21.3393,55.4781,18.82,63,0,2.57,RE,1725243504
538,wewak,-3.5534,143.6268,26.52,86,100,0.47,PG,1725243754
539,usinsk,65.9939,57.5281,8.57,94,100,7.57,RU,1725243755
540,daru,-9.0763,143.2092,26.64,81,95,6.68,PG,1725243755
541,freetown,8.484,-13.2299,23.84,94,75,4.12,SL,1725243755
542,san lawrenz,36.0553,14.204,24.36,84,0,0.44,MT,1725243755
543,revelstoke,50.9832,-118.2023,22.01,73,0,1.03,CA,1725243755
544,chom thong,18.4174,98.6743,26.75,85,97,0.96,TH,1725243755
545,luderitz,-26.6481,15.1594,21.87,31,3,1.93,NA,1725243755
546,oban,56.4127,-5.4706,13.83,96,100,1.42,GB,1725243755
547,sainte-rose,16.3324,-61.6979,26.02,89,24,2.57,GP,1725243564
548,fabens,31.5023,-106.1586,24.55,35,97,4.83,US,1725243755
549,amos,48.5669,-78.1162,8.34,89,97,2.6,CA,1725243755
550,santo amaro da imperatriz,-27.6881,-48.7786,18.86,75,100,0.49,BR,1725243755
551,richfield,44.8833,-93.283,17.71,72,0,0.0,US,1725243755
552,breaux bridge,30.2735,-91.8993,27.24,97,20,0.0,US,1725243756
553,itoman,26.1247,127.6694,32.43,57,20,3.6,JP,1725243757
554,ebish,37.4639,41.1906,21.5,56,0,0.25,TR,1725243757
